$GNRMC,075403.000,A,3040.62194,N,10401.18383,E,28.33,207.18,130121,,,A,V*33
$GNRMC,075404.000,A,3040.61493,N,10401.17971,E,28.65,206.69,130121,,,A,V*39
$GNRMC,075405.000,A,3040.60777,N,10401.17560,E,29.05,205.89,130121,,,A,V*36
$GNRMC,075406.000,A,3040.60047,N,10401.17161,E,29.01,204.60,130121,,,A,V*36
$GNRMC,075408.000,A,3040.58570,N,10401.16427,E,29.01,201.40,130121,,,A,V*33
$GNRMC,075409.000,A,3040.57815,N,10401.16093,E,29.13,200.17,130121,,,A,V*38
$GNRMC,075410.000,A,3040.57055,N,10401.15792,E,28.98,198.13,130121,,,A,V*3D
$GNRMC,075411.000,A,3040.56287,N,10401.15518,E,28.92,196.51,130121,,,A,V*32
$GNRMC,075412.000,A,3040.55516,N,10401.15249,E,28.85,196.50,130121,,,A,V*39
$GNRMC,075413.000,A,3040.54744,N,10401.14990,E,28.85,195.77,130121,,,A,V*34
$GNRMC,075414.000,A,3040.53973,N,10401.14755,E,28.49,193.70,130121,,,A,V*38
$GNRMC,075415.000,A,3040.53197,N,10401.14562,E,28.39,190.56,130121,,,A,V*3D
$GNRMC,075417.000,A,3040.51646,N,10401.14338,E,27.81,183.83,130121,,,A,V*39
$GNRMC,075418.000,A,3040.50879,N,10401.14275,E,27.52,184.01,130121,,,A,V*3E
$GNRMC,075419.000,A,3040.50125,N,10401.14199,E,26.88,185.48,130121,,,A,V*34
$GNRMC,075420.000,A,3040.49379,N,10401.14108,E,27.12,186.40,130121,,,A,V*3C
$GNRMC,075421.000,A,3040.48638,N,10401.14037,E,26.82,183.98,130121,,,A,V*39
$GNRMC,075422.000,A,3040.47898,N,10401.13998,E,26.86,181.87,130121,,,A,V*32
$GNRMC,075423.000,A,3040.47144,N,10401.13970,E,27.02,181.56,130121,,,A,V*3C
$GNRMC,075424.000,A,3040.46397,N,10401.13962,E,26.75,179.99,130121,,,A,V*30
$GNRMC,075425.000,A,3040.45663,N,10401.13972,E,26.21,178.85,130121,,,A,V*30
$GNRMC,075427.000,A,3040.44210,N,10401.14013,E,26.24,177.99,130121,,,A,V*3D
$GNRMC,075428.000,A,3040.43464,N,10401.14042,E,27.27,178.03,130121,,,A,V*3A
$GNRMC,075429.000,A,3040.42691,N,10401.14069,E,28.13,178.36,130121,,,A,V*35
$GNRMC,075430.000,A,3040.41899,N,10401.14091,E,28.79,178.99,130121,,,A,V*36
$GNRMC,075431.000,A,3040.41086,N,10401.14109,E,29.44,179.12,130121,,,A,V*3C
$GNRMC,075432.000,A,3040.40257,N,10401.14130,E,30.07,178.69,130121,,,A,V*38
$GNRMC,075433.000,A,3040.39428,N,10401.14156,E,29.38,178.32,130121,,,A,V*33
$GNRMC,075434.000,A,3040.38613,N,10401.14187,E,28.87,177.99,130121,,,A,V*38
$GNRMC,075436.000,A,3040.37080,N,10401.14237,E,25.57,178.32,130121,,,A,V*3F
$GNRMC,075437.000,A,3040.36392,N,10401.14248,E,24.01,179.76,130121,,,A,V*34
$GNRMC,075438.000,A,3040.35755,N,10401.14244,E,22.29,179.93,130121,,,A,V*3C
$GNRMC,075439.000,A,3040.35147,N,10401.14263,E,21.59,177.40,130121,,,A,V*39
$GNRMC,075440.000,A,3040.34565,N,10401.14281,E,20.31,179.57,130121,,,A,V*39
$GNRMC,075441.000,A,3040.34005,N,10401.14285,E,20.85,179.19,130121,,,A,V*3A
$GNRMC,075442.000,A,3040.33424,N,10401.14307,E,20.64,178.07,130121,,,A,V*33
$GNRMC,075443.000,A,3040.32839,N,10401.14337,E,21.60,176.90,130121,,,A,V*35
$GNRMC,075445.000,A,3040.31605,N,10401.14397,E,22.29,177.96,130121,,,A,V*32
$GNRMC,075446.000,A,3040.30992,N,10401.14429,E,21.95,177.91,130121,,,A,V*30
$GNRMC,075447.000,A,3040.30385,N,10401.14459,E,21.74,178.46,130121,,,A,V*30
$GNRMC,075448.000,A,3040.29782,N,10401.14482,E,21.65,178.77,130121,,,A,V*30
$GNRMC,075449.000,A,3040.29182,N,10401.14507,E,21.50,178.27,130121,,,A,V*38
$GNRMC,075450.000,A,3040.28581,N,10401.14524,E,21.64,179.24,130121,,,A,V*32
$GNRMC,075451.000,A,3040.27957,N,10401.14544,E,22.95,178.10,130121,,,A,V*36
$GNRMC,075452.000,A,3040.27303,N,10401.14571,E,23.96,178.16,130121,,,A,V*3C
$GNRMC,075454.000,A,3040.25915,N,10401.14632,E,25.99,178.02,130121,,,A,V*3D
$GNRMC,075455.000,A,3040.25183,N,10401.14657,E,26.63,178.71,130121,,,A,V*3A
$GNRMC,075456.000,A,3040.24436,N,10401.14680,E,27.26,178.40,130121,,,A,V*3B
$GNRMC,075457.000,A,3040.23668,N,10401.14708,E,28.04,178.28,130121,,,A,V*34
$GNRMC,075458.000,A,3040.22895,N,10401.14738,E,27.72,178.26,130121,,,A,V*35
$GNRMC,075459.000,A,3040.22124,N,10401.14774,E,27.68,177.27,130121,,,A,V*3A
$GNRMC,075500.000,A,3040.21355,N,10401.14803,E,27.76,179.16,130121,,,A,V*3C
$GNRMC,075501.000,A,3040.20576,N,10401.14816,E,28.02,179.00,130121,,,A,V*34
$GNRMC,075503.000,A,3040.19007,N,10401.14814,E,28.34,182.54,130121,,,A,V*3D
$GNRMC,075504.000,A,3040.18225,N,10401.14777,E,28.01,182.68,130121,,,A,V*3A
$GNRMC,075505.000,A,3040.17438,N,10401.14734,E,28.15,183.28,130121,,,A,V*39
$GNRMC,075506.000,A,3040.16654,N,10401.14705,E,28.23,181.71,130121,,,A,V*3A
$GNRMC,075507.000,A,3040.15856,N,10401.14680,E,28.46,181.05,130121,,,A,V*38
$GNRMC,075508.000,A,3040.15059,N,10401.14683,E,28.63,179.27,130121,,,A,V*33
$GNRMC,075509.000,A,3040.14256,N,10401.14696,E,29.10,179.13,130121,,,A,V*38
$GNRMC,075510.000,A,3040.13443,N,10401.14705,E,29.11,179.41,130121,,,A,V*38
$GNRMC,075512.000,A,3040.11872,N,10401.14730,E,27.10,179.18,130121,,,A,V*33
$GNRMC,075513.000,A,3040.11127,N,10401.14743,E,26.52,179.48,130121,,,A,V*3D
$GNRMC,075514.000,A,3040.10396,N,10401.14754,E,26.20,179.66,130121,,,A,V*3C
$GNRMC,075515.000,A,3040.09666,N,10401.14765,E,26.31,179.25,130121,,,A,V*3A
$GNRMC,075516.000,A,3040.08951,N,10401.14774,E,25.36,179.40,130121,,,A,V*34
$GNRMC,075517.000,A,3040.08246,N,10401.14786,E,25.41,179.36,130121,,,A,V*34
$GNRMC,075518.000,A,3040.07530,N,10401.14794,E,26.10,179.91,130121,,,A,V*3B
$GNRMC,075520.000,A,3040.06018,N,10401.14801,E,28.20,180.05,130121,,,A,V*3B
$GNRMC,075521.000,A,3040.05220,N,10401.14807,E,29.08,179.41,130121,,,A,V*3B
$GNRMC,075522.000,A,3040.04404,N,10401.14820,E,29.63,179.17,130121,,,A,V*32
$GNRMC,075523.000,A,3040.03575,N,10401.14838,E,29.95,178.89,130121,,,A,V*35
$GNRMC,075524.000,A,3040.02743,N,10401.14858,E,29.99,178.74,130121,,,A,V*3C
$GNRMC,075525.000,A,3040.01911,N,10401.14880,E,29.85,178.85,130121,,,A,V*31
$GNRMC,075526.000,A,3040.01082,N,10401.14902,E,29.67,178.78,130121,,,A,V*34
$GNRMC,075527.000,A,3040.00247,N,10401.14931,E,30.27,177.94,130121,,,A,V*3E
$GNRMC,075528.000,A,3039.99402,N,10401.14968,E,30.57,177.87,130121,,,A,V*31
$GNRMC,075530.000,A,3039.97660,N,10401.15016,E,31.87,178.75,130121,,,A,V*3F
$GNRMC,075531.000,A,3039.96772,N,10401.15041,E,32.09,178.11,130121,,,A,V*38
$GNRMC,075532.000,A,3039.95872,N,10401.15068,E,32.63,178.44,130121,,,A,V*30
$GNRMC,075533.000,A,3039.94954,N,10401.15096,E,33.32,178.35,130121,,,A,V*37
$GNRMC,075534.000,A,3039.94021,N,10401.15122,E,33.65,178.57,130121,,,A,V*33
$GNRMC,075535.000,A,3039.93083,N,10401.15151,E,33.82,178.14,130121,,,A,V*37
$GNRMC,075536.000,A,3039.92141,N,10401.15184,E,33.88,178.26,130121,,,A,V*39
$GNRMC,075537.000,A,3039.91204,N,10401.15208,E,33.47,178.91,130121,,,A,V*31
$GNRMC,075539.000,A,3039.89420,N,10401.15246,E,31.05,178.31,130121,,,A,V*32
$GNRMC,075540.000,A,3039.88561,N,10401.15275,E,30.76,178.23,130121,,,A,V*3F
$GNRMC,075541.000,A,3039.87711,N,10401.15301,E,30.34,178.44,130121,,,A,V*31
$GNRMC,075542.000,A,3039.86871,N,10401.15324,E,30.02,178.60,130121,,,A,V*3E
$GNRMC,075543.000,A,3039.86034,N,10401.15348,E,30.21,178.48,130121,,,A,V*37
$GNRMC,075544.000,A,3039.85171,N,10401.15369,E,31.71,178.79,130121,,,A,V*36
$GNRMC,075545.000,A,3039.84277,N,10401.15391,E,32.62,178.68,130121,,,A,V*35
$GNRMC,075546.000,A,3039.83362,N,10401.15413,E,33.26,178.46,130121,,,A,V*34
$GNRMC,075548.000,A,3039.81499,N,10401.15459,E,33.60,178.80,130121,,,A,V*3D
$GNRMC,075549.000,A,3039.80571,N,10401.15484,E,33.23,178.44,130121,,,A,V*35
$GNRMC,075550.000,A,3039.79638,N,10401.15515,E,33.74,178.33,130121,,,A,V*3E
$GNRMC,075551.000,A,3039.78687,N,10401.15540,E,34.45,178.99,130121,,,A,V*3F
$GNRMC,075552.000,A,3039.77718,N,10401.15552,E,35.27,179.67,130121,,,A,V*32
$GNRMC,075553.000,A,3039.76727,N,10401.15566,E,35.88,179.14,130121,,,A,V*38
$GNRMC,075554.000,A,3039.75718,N,10401.15577,E,36.70,179.93,130121,,,A,V*3B
$GNRMC,075555.000,A,3039.74691,N,10401.15565,E,37.30,181.26,130121,,,A,V*34
$GNRMC,075557.000,A,3039.72578,N,10401.15534,E,38.67,179.89,130121,,,A,V*3F
$GNRMC,075558.000,A,3039.71487,N,10401.15544,E,39.76,179.16,130121,,,A,V*32
$GNRMC,075559.000,A,3039.70374,N,10401.15575,E,40.37,178.37,130121,,,A,V*32
$GNRMC,075600.000,A,3039.69250,N,10401.15610,E,40.70,178.46,130121,,,A,V*37
$GNRMC,075601.000,A,3039.68108,N,10401.15644,E,41.45,178.64,130121,,,A,V*3F
$GNRMC,075602.000,A,3039.66952,N,10401.15685,E,41.93,177.95,130121,,,A,V*32
$GNRMC,075603.000,A,3039.65780,N,10401.15724,E,42.58,178.58,130121,,,A,V*31
$GNRMC,075604.000,A,3039.64587,N,10401.15753,E,43.23,179.01,130121,,,A,V*32
$GNRMC,075606.000,A,3039.62214,N,10401.15818,E,41.56,178.29,130121,,,A,V*30
$GNRMC,075607.000,A,3039.61117,N,10401.15850,E,37.43,178.72,130121,,,A,V*35
$GNRMC,075608.000,A,3039.60113,N,10401.15874,E,34.79,178.62,130121,,,A,V*32
$GNRMC,075609.000,A,3039.59161,N,10401.15906,E,33.40,178.01,130121,,,A,V*30
$GNRMC,075610.000,A,3039.58238,N,10401.15956,E,32.73,176.65,130121,,,A,V*3E
$GNRMC,075611.000,A,3039.57336,N,10401.16035,E,32.16,174.98,130121,,,A,V*33
$GNRMC,075612.000,A,3039.56454,N,10401.16124,E,31.54,174.84,130121,,,A,V*3B
$GNRMC,075613.000,A,3039.55592,N,10401.16196,E,30.54,176.59,130121,,,A,V*38
$GNRMC,075614.000,A,3039.54739,N,10401.16245,E,30.83,177.86,130121,,,A,V*39
$GNRMC,075616.000,A,3039.52954,N,10401.16314,E,33.12,178.03,130121,,,A,V*34
$GNRMC,075617.000,A,3039.52020,N,10401.16355,E,33.97,177.85,130121,,,A,V*36
$GNRMC,075618.000,A,3039.51060,N,10401.16393,E,35.05,178.28,130121,,,A,V*31
$GNRMC,075619.000,A,3039.50074,N,10401.16423,E,35.92,178.74,130121,,,A,V*3F
$GNRMC,075620.000,A,3039.49063,N,10401.16449,E,36.91,178.76,130121,,,A,V*35
$GNRMC,075621.000,A,3039.48025,N,10401.16474,E,37.82,178.95,130121,,,A,V*37
$GNRMC,075622.000,A,3039.46961,N,10401.16499,E,38.75,178.83,130121,,,A,V*30
$GNRMC,075624.000,A,3039.44780,N,10401.16550,E,39.79,178.90,130121,,,A,V*3E
$GNRMC,075625.000,A,3039.43683,N,10401.16579,E,39.41,178.69,130121,,,A,V*3C
$GNRMC,075626.000,A,3039.42596,N,10401.16612,E,38.86,178.54,130121,,,A,V*33
$GNRMC,075627.000,A,3039.41528,N,10401.16645,E,38.23,178.43,130121,,,A,V*3F
$GNRMC,075628.000,A,3039.40467,N,10401.16681,E,38.12,178.28,130121,,,A,V*3C
$GNRMC,075629.000,A,3039.39393,N,10401.16720,E,39.04,178.26,130121,,,A,V*3D
$GNRMC,075630.000,A,3039.38307,N,10401.16761,E,38.99,178.22,130121,,,A,V*3D
$GNRMC,075631.000,A,3039.37246,N,10401.16795,E,37.34,178.66,130121,,,A,V*34
$GNRMC,075633.0
$GNRMC,075634.000,A,3039.34303,N,10401.16874,E,33.63,178.63,130121,,,A,V*31
$GNRMC,075635.000,A,3039.33381,N,10401.16897,E,32.57,178.79,130121,,,A,V*3D
$GNRMC,075636.000,A,3039.32487,N,10401.16920,E,31.65,178.88,130121,,,A,V*3F
$GNRMC,075637.000,A,3039.31604,N,10401.16944,E,31.62,178.60,130121,,,A,V*37
$GNRMC,075638.000,A,3039.30714,N,10401.16968,E,32.17,178.78,130121,,,A,V*3F
$GNRMC,075639.000,A,3039.29810,N,10401.16992,E,32.72,178.49,130121,,,A,V*39
$GNRMC,075640.000,A,3039.28891,N,10401.17031,E,33.37,177.61,130121,,,A,V*3B
$GNRMC,075641.000,A,3039.27953,N,10401.17076,E,34.11,177.51,130121,,,A,V*39
$GNRMC,075643.000,A,3039.26015,N,10401.17130,E,35.70,178.91,130121,,,A,V*37
$GNRMC,075644.000,A,3039.25005,N,10401.17153,E,36.61,178.68,130121,,,A,V*32
$GNRMC,075645.000,A,3039.23958,N,10401.17189,E,38.46,178.01,130121,,,A,V*37
$GNRMC,075646.000,A,3039.22870,N,10401.17220,E,39.70,178.79,130121,,,A,V*35
$GNRMC,075647.000,A,3039.21763,N,10401.17248,E,39.88,178.61,130121,,,A,V*3A
$GNRMC,075648.000,A,3039.20657,N,10401.17282,E,39.44,178.25,130121,,,A,V*34
$GNRMC,075649.000,A,3039.19567,N,10401.17314,E,38.94,178.53,130121,,,A,V*3C
$GNRMC,075650.000,A,3039.18502,N,10401.17343,E,37.64,178.51,130121,,,A,V*36
$GNRMC,075652.000,A,3039.16487,N,104
$GNRMC,075653.00
$GNRMC,075654.000,A,3039.14633,N,10401.17492,E,32.41,178.07,130121,,,A,V*35
$GNRMC,075655.000,A,3039.13723,N,10401.17521,E,32.84,178.61,130121,,,A,V*33
$GNRMC,075656.000,A,3039.12808,N,10401.17550,E,32.97,178.44,130121,,,A,V*34
$GNRMC,075657.000,A,3039.11887,N,10401.17589,E,33.28,177.36,130121,,,A,V*3A
$GNRMC,075658.000,A,3039.10961,N,10401.17632,E,33.40,177.86,130121,,,A,V*3B
$GNRMC,075700.000,A,3039.09112,N,10401.17684,E,33.55,179.31,130121,,,A,V*38
$GNRMC,075701.000,A,3039.08176,N,10401.17703,E,33.78,178.85,130121,,,A,V*
$GNRMC,075702.000,A,3039.07251,N,1040
$GNRMC,075704.000,A,3039.05457,N,10401.17792,E,31.87,178.04,130121,,,A,V*38
$GNRMC,075705.000,A,3039.04563,N,10401.17823,E,32.59,178.28,130121,,,A,V*35
$GNRMC,075706.000,A,3039.03645,N,10401.17847,E,33.37,178.67,130121,,,A,V*36
$GNRMC,075707.000,A,3039.02733,N,10401.17871,E,32.85,178.60,130121,,,A,V*3C
$GNRMC,075708.000,A,3039.01842,N,10401.17898,E,31.71,178.27,130121,,,A,V*35
$GNRMC,075710.000,A,3039.00126,N,10401.17962,E,30.21,178.07,130121,,,A,V*34
$GNRMC,075711.000,A,3038.99301,N,10401.17996,E,29.42,178.05,130121,,,A,V*37
$GNRMC,075712.000,A,3038.98478,N,10401.18022,E,30.05,178.53,1301
$GNRMC,075713.000,A,3038.97629,N,
$GNRMC,075715.000,A,3038.95831,N,10401.18076,E,33.63,179.56,130121,,,A,V*30
$GNRMC,075716.000,A,3038.94894,N,10401.18086,E,33.87,179.21,130121,,,A,V*38
$GNRMC,075717.000,A,3038.93956,N,10401.18104,E,33.79,178.60,130121,,,A,V*3F
$GNRMC,075719.000,A,3038.92103,N,10401.18148,E,32.62,178.85,130121,,,A,V*30
$GNRMC,075720.000,A,3038.91191,N,10401.18179,E,32.83,178.19,130121,,,A,V*3A
$GNRMC,075721.000,A,3038.90262,N,10401.18238,E,33.98,175.85,130121,,,A,V*30
$GNRMC,075722.000,A,3038.89302,N,10401.18348
$GNRMC,075723
$GNRMC,075724.000,A,3038.87335,N,10401.18800,E,36.67,164.42,130121,,,A,V*3F
$GNRMC,075725.000,A,3038.86371,N,10401.19158,E,36.40,160.04,130121,,,A,V*39
$GNRMC,075726.000,A,3038.85448,N,10401.19572,E,35.14,157.25,130121,,,A,V*3D
$GNRMC,075727.000,A,3038.84578,N,10401.20034,E,33.88,153.25,130121,,,A,V*35
$GNRMC,075729.000,A,3038.82958,N,10401.21164,E,34.90,144.88,130121,,,A,V*39
$GNRMC,075730.000,A,3038.82174,N,10401.21838,E,35.62,142.22,130121,,,A,V*3D
$GNRMC,075731.000,A,3038.81401,N,10401.22562,E,36.1
$GNRMC,075732.0
$GNRMC,075733.000,A,3038.79857,N,10401.24123,E,37.79,138.91,130121,,,A,V*39
$GNRMC,075734.000,A,3038.79057,N,10401.24920,E,38.20,139.64,130121,,,A,V*35
$GNRMC,075735.000,A,3038.78241,N,10401.25712,E,38.45,140.35,130121,,,A,V*37
$GNRMC,075737.000,A,3038.76611,N,10401.27325,E,38.04,138.86,130121,,,A,V*3A
$GNRMC,075738.000,A,3038.75826,N,10401.28125,E,37.26,138.68,130121,,,A,V*3E
$GNRMC,075739.000,A,3038.75057,N,10401.28906,E,36.20,139.09,130121,,,A,V*39
$GNRMC,075740.000,A,3038.74308,N,10401.29662,E,35.26,139.06,130121,,,A,V*
$GNRMC,075741.000,A,3038.73574,N,
$GNRMC,075742.000,A,3038.72852,N,10401.31159,E,34.11,139.13,130121,,,A,V*3E
$GNRMC,075743.000,A,3038.72134,N,10401.31869,E,33.78,139.95,130121,,,A,V*3A
$GNRMC,075744.000,A,3038.71406,N,10401.32582,E,34.63,139.76,130121,,,A,V*31
$GNRMC,075745.000,A,3038.70663,N,10401.33314,E,35.16,139.42,130121,,,A,V*3C
$GNRMC,075746.000,A,3038.69908,N,10401.34073,E,36.52,138.78,130121,,,A,V*3B
$GNRMC,075747.000,A,3038.69158,N,10401.34827,E,35.30,139.51,130121,,,A,V*33
$GNRMC,075749.000,A,3038.67649,N,10401.36342,E,36.47,138.94,130121,,,A,V*35
$GNRMC,075750.000,A,3038.66881,N,1040
$GNRMC,075751.000,A,3038.66113,N,10401.37896,E,36.73,138.27,130121,,,A,V*39
$GNRMC,075752.000,A,3038.65350,N,10401.38686,E,36.95,138.28,130121,,,A,V*3B
$GNRMC,075753.000,A,3038.64582,N,10401.39473,E,36.78,138.95,130121,,,A,V*3E
$GNRMC,075755.000,A,3038.63028,N,10401.41010,E,36.81,139.44,130121,,,A,V*3F
$GNRMC,075756.000,A,3038.62254,N,10401.41783,E,36.61,139.45,130121,,,A,V*36
$GNRMC,075757.000,A,3038.61491,N,10401.42543,E,35.94,139.23,130121,,,A,V*3F
$GNRMC,075758.000,A,3038.60748,N,10401.43286,E,34.85,139.07,130121,,,A,V*3E
$GNRMC,075759.000,A,3038.60035,N,10401.44004,E,33.21,138.94,130121,,,A,V*3F
$GNRMC,075800.000,A,3038.59351,N,10401.44689,E,32.05,139.15,130121,,,A,V*3B
$GNRMC,075801.000,A,3038.58682,N,10401.45362,
$GNRMC,075804.000,A,3038.56590,N,10401.47457,E,34.65,138.84,130121,,,A,V*30
$GNRMC,075805.000,A,3038.55852,N,10401.48199,E,35.72,139.11,130121,,,A,V*33
$GNRMC,075806.000,A,3038.55106,N,10401.48946,E,35.47,139.13,130121,,,A,V*36
$GNRMC,075807.000,A,3038.54372,N,10401.49680,E,34.36,139.03,130121,,,A,V*35
$GNRMC,075808.000,A,3038.53662,N,10401.50399,E,33.65,138.46,130121,,,A,V*3D
$GNRMC,075809.000,A,3038.52966,N,10401.51096,E,32.63,139.80,130121,,,A,V*37
$GNRMC,075810.000,A,3038.52278,N,10401.51779,E,
$GNRMC,
$GNRMC,075812.000,A,3038.50918,N,10401.53130,E,32.96,139.35,130121,,,A,V*3D
$GNRMC,075814.000,A,3038.49496,N,10401.54543,E,34.48,139.08,130121,,,A,V*34
$GNRMC,075815.000,A,3038.48779,N,10401.55264,E,34.06,138.99,130121,,,A,V*36
$GNRMC,075816.000,A,3038.48072,N,10401.55975,E,33.45,139.07,130121,,,A,V*34
$GNRMC,075817.000,A,3038.47380,N,10401.56666,E,32.66,139.35,130121,,,A,V*3B
$GNRMC,075818.000,A,3038.46699,N,10401.57349,E,32.21,138.96,130121,,,A,V*3A
$GNRMC,075819.000,A,3038.46015,N,10401.58043,E,32.95,139.10,130121,,,A,V*3F
$GNRMC,075820.000,A,3038.45309,N,10401.5
$GNRMC,075821.000,A,3038.44581,N,10401.59481,E,35.19,139.00,130121,,,A,V*37
$GNRMC,075823.000,A,3038.43064,N,10401.61012,E,37.20,139.30,130121,,,A,V*32
$GNRMC,075824.000,A,3038.42273,N,10401.61801,E,38.09,139.28,130121,,,A,V*37
$GNRMC,075825.000,A,3038.41482,N,10401.62592,E,37.51,138.98,130121,,,A,V*31
$GNRMC,075826.000,A,3038.40693,N,10401.63386,E,37.74,138.91,130121,,,A,V*3D
$GNRMC,075827.000,A,3038.39892,N,10401.64182,E,38.16,139.78,130121,,,A,V*31
$GNRMC,075828.000,A,3038.39086,N,10401.64969,E,37.52,140.02,130121,,,A,V*32
$GNRMC,075829.000,A,3038.38301,N,10401.65
$GNRMC,075831.000,A,3038.36790,N,10401.67200,E,35.14,139.49,130121,,,A,V*33
$GNRMC,075832.000,A,3038.36051,N,10401.67935,E,34.80,138.99,130121,,,A,V*37
$GNRMC,075833.000,A,3038.35303,N,10401.68689,E,36.23,138.86,130121,,,A,V*33
$GNRMC,075834.000,A,3038.34530,N,10401.69472,E,37.55,138.88,130121,,,A,V*3A
$GNRMC,075835.000,A,3038.33747,N,10401.70248,E,36.73,139.32,130121,,,A,V*3C
$GNRMC,075836.000,A,3038.32976,N,10401.70997,E,35.71,140.29,130121,,,A,V*3E
$GNRMC,075837.000,A,3038.32223,N,10401.71723,E,34.81,139.92,130121,,,A,V*34
$GNRMC,075838.000,A,3038.31494,N,10401.72437,E,33.95,139.47,130121,,,A,V*3D
$GNRMC,075839.000,A,3038.30768,N,10401.73159,E,34.71,139.24,13012
$GNRMC,075841.000,A,3038.29257,N,10401.74658,E,36.61,138.88,130121,,,A,V*32
$GNRMC,075842.000,A,3038.28486,N,10401.75433,E,37.06,138.82,130121,,,A,V*3E
$GNRMC,075843.000,A,3038.27711,N,10401.76213,E,36.85,139.19,130121,,,A,V*33
$GNRMC,075844.000,A,3038.26941,N,10401.76976,E,36.12,139.52,130121,,,A,V*37
$GNRMC,075845.000,A,3038.26189,N,10401.77720,E,35.05,139.47,130121,,,A,V*37
$GNRMC,075846.000,A,3038.25449,N,10401.78452,E,34.87,139.52,130121,,,A,V*38
$GNRMC,075847.000,A,3038.24697,N,10401.79197,E,36.21,139.36,130121,,,A,V*38
$GNRMC,075848.000,A,3038.23936,N,10401.79957,E,36.20,139.08,130121,,,A,V*3C
$GNRMC,075849.000,A,3038.23190,N,10401.80709,E,35.12,138.88
$GNRMC,075850.000,A
$GNRMC,075852.000,A,3038.21062,N,10401.82816,E,31.95,140.55,130121,,,A,V*32
$GNRMC,075853.000,A,3038.20386,N,10401.83466,E,31.09,140.10,130121,,,A,V*35
$GNRMC,075854.000,A,3038.19729,N,10401.84116,E,30.76,139.38,130121,,,A,V*31
$GNRMC,075855.000,A,3038.19072,N,10401.84769,E,31.30,139.38,130121,,,A,V*34
$GNRMC,075856.000,A,3038.18393,N,10401.85424,E,32.36,140.40,130121,,,A,V*35
$GNRMC,075857.000,A,3038.17688,N,10401.86098,E,33.32,140.38,130121,,,A,V*3E
$GNRMC,075858.000,A,3038.16971,N,10401.86780,E,33.52,140.74,
$GNRMC,075900.000,A,3038.15512,N,10401.88101,E,33.09,143.00,130121,,,A,V*30
$GNRMC,075901.000,A,3038.14793,N,10401.88740,E,32.08,142.37,130121,,,A,V*3D
$GNRMC,075902.000,A,3038.14104,N,10401.89372,E,31.07,141.25,130121,,,A,V*3E
$GNRMC,075903.000,A,3038.13436,N,10401.89988,E,30.20,141.58,130121,,,A,V*3D
$GNRMC,075904.000,A,3038.12777,N,10401.90587,E,29.97,142.14,130121,,,A,V*39
$GNRMC,075905.000,A,3038.12112,N,10401.91192,E,30.76,141.64,130121,,,A,V*3F
$GNRMC,075906.000,A,3038.11430,N,10401.91817,E,31.68,141.62,130121,,,A,V*36
$GNRMC,075908.000,A,3038.10048,N,10401.93079,E,31.21,141.70,130121,,,A,V*3E
$GNRMC,075909.000,A,3038.09366,N,10401.93707,E,31.19,141.64,130121,,,A,V*38
$GNRMC,075910.000,A,3038.08672,N,10401.94343,E,32.28,141.68,130121,,,A,V*3F
$GNRMC,075911.000,A,3038.07956,N,10401.94997,E,33.18,141.76,130121,,,A,V*36
$GNRMC,075912.000,A,3038.07225,N,10401.95678,E,34.10,141.05,130121,,,A,V*3E
$GNRMC,075913.000,A,3038.06474,N,10401.96375,E,35.07,141.27,130121,,,A,V*30
$GNRMC,075914.000,A,3038.05701,N,10401.97076,E,35.69,142.30,130121,,,A,V*39
$GNRMC,075915.000,A,3038.04905,N,10401.97783,E,36.44,142.35,130121,,,A,V*37
$GNRMC,075916.000,A,3038.04097,N,10401.98517,E,37.38,141.48,130121,,,A,V*35
$GNRMC,075918.000,A,3038.02446,N,10402.00028,E,38.57,141.72,130121,,,A,V*31
$GNRMC,075919.000,A,3038.01600,N,10402.00808,E,39.24,141.30,130121,,,A,V*3A
$GNRMC,075920.000,A,3038.00760,N,10402.01609,E,39.12,139.69,130121,,,A,V*3E
$GNRMC,075921.000,A,3037.99949,N,10402.02425,E,38.39,138.35,130121,,,A,V*3A
$GNRMC,075922.000,A,3037.99175,N,10402.03238,E,37.06,137.41,130121,,,A,V*3A
$GNRMC,075923.000,A,3037.98436,N,10402.04048,E,36.18,136.14,130121,,,A,V*35
$GNRMC,075924.000,A,3037.97724,N,10402.04846,E,35.13,135.94,130121,,,A,V*38
$GNRMC,075926.000,A,3037.96362,N,10402.06319,E,32.52,138.47,130121,,,A,V*3F
$GNRMC,075927.000,A,3037.95689,N,10402.07011,E,32.15,138.63,130121,,,A,V*32
$GNRMC,075928.000,A,3037.95014,N,10402.07724,E,33.44,136.93,130121,,,A,V*3A
$GNRMC,075929.000,A,3037.94338,N,10402.08490,E,34.58,134.60,130121,,,A,V*30
$GNRMC,075930.000,A,3037.93662,N,10402.09299,E,35.44,133.57,130121,,,A,V*34
$GNRMC,075931.000,A,3037.92976,N,10402.10138,E,36.40,133.49,130121,,,A,V*36
$GNRMC,075932.000,A,3037.92278,N,10402.11002,E,37.27,132.96,130121,,,A,V*3A
$GNRMC,075933.000,A,3037.91583,N,10402.11896,E,37.81,131.23,130121,,,A,V*3F
$GNRMC,075934.000,A,3037.90903,N,10402.12822,E,37.58,129.83,130121,,,A,V*36
$GNRMC,075936.000,A,3037.89646,N,10402.14685,E,35.84,125.77,130121,,,A,V*33
$GNRMC,075937.000,A,3037.89090,N,10402.15620,E,34.62,123.31,130121,,,A,V*3C
$GNRMC,075938.000,A,3037.88568,N,10402.16539,E,33.67,122.97,130121,,,A,V*37
$GNRMC,075939.000,A,3037.88056,N,10402.17434,E,32.95,123.98,130121,,,A,V*31
$GNRMC,075940.000,A,3037.87552,N,10402.18315,E,32.52,123.74,130121,,,A,V*33
$GNRMC,075941.000,A,3037.87066,N,10402.19184,E,31.73,122.67,130121,,,A,V*38
$GNRMC,075942.000,A,3037.86594,N,10402.20051,E,31.82,122.15,130121,,,A,V*3A
$GNRMC,075944.000,A,3037.85645,N,10402.21901,E,34.67,119.67,130121,,,A,V*3E
$GNRMC,075945.000,A,3037.85176,N,10402.22882,E,35.17,118.70,130121,,,A,V*30
$GNRMC,075946.000,A,3037.84712,N,10402.23864,E,34.64,118.90,130121,,,A,V*34
$GNRMC,075947.000,A,3037.84243,N,10402.24840,E,34.85,119.57,130121,,,A,V*30
$GNRMC,075948.000,A,3037.83782,N,10402.25799,E,33.63,118.91,130121,,,A,V*3E
$GNRMC,075949.000,A,3037.83334,N,10402.26736,E,32.99,118.92,130121,,,A,V*37
$GNRMC,075950.000,A,3037.82880,N,10402.27653,E,32.78,120.49,130121,,,A,V*3B
$GNRMC,075951.000,A,3037.82405,N,10402.28564,E,33.24,121.99,130121,,,A,V*37
$GNRMC,075953.000,A,3037.81410,N,10402.30404,E,34.34,121.68,130121,,,A,V*34
$GNRMC,075954.000,A,3037.80916,N,10402.31359,E,34.94,120.48,130121,,,A,V*3E
$GNRMC,075955.000,A,3037.80431,N,10402.32342,E,35.40,119.32,130121,,,A,V*31
$GNRMC,075956.000,A,3037.79952,N,10402.33340,E,35.66,118.98,130121,,,A,V*3A
$GNRMC,075957.000,A,3037.79470,N,10402.34331,E,35.18,119.93,130121,,,A,V*34
$GNRMC,075958.000,A,3037.78989,N,10402.35309,E,34.91,119.62,130121,,,A,V*35
$GNRMC,075959.000,A,3037.78515,N,10402.36279,E,34.43,119.54,130121,,,A,V*32
$GNRMC,080000.000,A,3037.78038,N,10402.37231,E,33.95,120.70,130121,,,A,V*3A
$GNRMC,080001.000,A,3037.77552,N,10402.38150,E,33.14,122.26,130121,,,A,V*3E
$GNRMC,080003.000,A,3037.76511,N,10402.39935,E,33.68,125.32,130121,,,A,V*39
$GNRMC,080004.000,A,3037.75976,N,10402.40814,E,33.27,125.10,130121,,,A,V*37
$GNRMC,080005.000,A,3037.75476,N,10402.41704,E,32.84,121.24,130121,,,A,V*3F
$GNRMC,080006.000,A,3037.74985,N,10402.42606,E,33.31,122.61,130121,,,A,V*31
$GNRMC,080007.000,A,3037.74485,N,10402.43530,E,34.49,121.84,130121,,,A,V*3A
$GNRMC,080008.000,A,3037.73972,N,10402.44509,E,36.39,120.91,130121,,,A,V*3A
$GNRMC,080009.000,A,3037.73445,N,10402.45525,E,37.38,120.88,130121,,,A,V*35
$GNRMC,080011.000,A,3037.72397,N,10402.47590,E,37.57,119.65,130121,,,A,V*39
$GNRMC,080012.000,A,3037.71876,N,10402.48645,E,37.95,119.73,130121,,,A,V*30
$GNRMC,080013.000,A,3037.71351,N,10402.49703,E,37.82,119.80,130121,,,A,V*37
$GNRMC,080014.000,A,3037.70835,N,10402.50772,E,38.09,118.89,130121,,,A,V*32
$GNRMC,080015.000,A,3037.70314,N,10402.51843,E,38.31,119.37,130121,,,A,V*38
$GNRMC,080016.000,A,3037.69790,N,10402.52917,E,38.33,119.45,130121,,,A,V*3F
$GNRMC,080017.000,A,3037.69266,N,10402.53997,E,38.60,119.23,130121,,,A,V*3D
$GNRMC,080018.000,A,3037.68740,N,10402.55084,E,38.79,119.43,130121,,,A,V*31
$GNRMC,080019.000,A,3037.68206,N,10402.56174,E,38.97,119.74,130121,,,A,V*3E
$GNRMC,080020.000,A,3037.67693,N,10402.57231,E,36.45,118.96,130121,,,A,V*3C
$GNRMC,080022.000,A,3037.66749,N,10402.59178,E,33.27,119.25,130121,,,A,V*31
$GNRMC,080023.000,A,3037.66284,N,10402.60135,E,34.85,119.72,130121,,,A,V*3A
$GNRMC,080024.000,A,3037.65801,N,10402.61137,E,36.19,119.04,130121,,,A,V*3C
$GNRMC,080025.000,A,3037.65308,N,10402.62173,E,37.22,118.80,130121,,,A,V*38
$GNRMC,080026.000,A,3037.64802,N,10402.63237,E,38.29,118.90,130121,,,A,V*3C
$GNRMC,080027.000,A,3037.64291,N,10402.64310,E,37.83,118.88,130121,,,A,V*38
$GNRMC,080028.000,A,3037.63794,N,10402.65350,E,36.21,118.92,130121,,,A,V*37
$GNRMC,080030.000,A,3037.62815,N,10402.67357,E,35.66,120.30,130121,,,A,V*3F
$GNRMC,080031.000,A,3037.62311,N,10402.68386,E,37.84,119.31,130121,,,A,V*37
$GNRMC,080032.000,A,3037.61796,N,10402.69448,E,37.65,119.01,130121,,,A,V*34
$GNRMC,080033.000,A,3037.61313,N,10402.70462,E,34.62,118.81,130121,,,A,V*31
$GNRMC,080034.000,A,3037.60849,N,10402.71412,E,33.10,119.95,130121,,,A,V*33
$GNRMC,080035.000,A,3037.60429,N,10402.72276,E,28.50,118.48,130121,,,A,V*30
$GNRMC,080036.000,A,3037.60072,N,10402.73049,E,25.87,117.59,130121,,,A,V*3E
$GNRMC,080037.000,A,3037.59730,N,10402.73790,E,26.45,118.81,130121,,,A,V*30
$GNRMC,080038.000,A,3037.59384,N,10402.74517,E,25.38,119.10,130121,,,A,V*3E
$GNRMC,080040.000,A,3037.58713,N,10402.75953,E,25.18,117.93,130121,,,A,V*30
$GNRMC,080041.000,A,3037.58391,N,10402.76669,E,24.97,117.16,130121,,,A,V*31
$GNRMC,080042.000,A,3037.58076,N,10402.77394,E,25.29,116.15,130121,,,A,V*38
$GNRMC,080043.000,A,3037.57772,N,10402.78130,E,25.45,115.20,130121,,,A,V*39
$GNRMC,080044.000,A,3037.57469,N,10402.78873,E,25.54,115.23,130121,,,A,V*3A
$GNRMC,080045.000,A,3037.57164,N,10402.79622,E,25.99,115.23,130121,,,A,V*39
$GNRMC,080046.000,A,3037.56844,N,10402.80407,E,27.78,115.33,130121,,,A,V*3F
$GNRMC,080048.000,A,3037.56147,N,10402.82122,E,30.97,114.95,130121,,,A,V*31
$GNRMC,080049.000,A,3037.55767,N,10402.83033,E,31.96,116.06,130121,,,A,V*3F
$GNRMC,080050.000,A,3037.55361,N,10402.83973,E,33.23,116.78,130121,,,A,V*3D
$GNRMC,080051.000,A,3037.54935,N,10402.84930,E,33.79,117.33,130121,,,A,V*37
$GNRMC,080052.000,A,3037.54508,N,10402.85892,E,33.55,117.04,130121,,,A,V*34
$GNRMC,080053.000,A,3037.54083,N,10402.86833,E,32.50,118.00,130121,,,A,V*34
$GNRMC,080054.000,A,3037.53666,N,10402.87737,E,31.32,118.25,130121,,,A,V*33
$GNRMC,080055.000,A,3037.53252,N,10402.88614,E,30.60,119.28,130121,,,A,V*34
$GNRMC,080057.000,A,3037.52432,N,10402.90304,E,29.62,119.36,130121,,,A,V*3F
$GNRMC,080058.000,A,3037.52029,N,10402.91123,E,29.11,119.94,130121,,,A,V*34
$GNRMC,080059.000,A,3037.51633,N,10402.91930,E,28.62,119.33,130121,,,A,V*39
$GNRMC,080100.000,A,3037.51241,N,10402.92737,E,28.81,119.40,130121,,,A,V*36
$GNRMC,080101.000,A,3037.50843,N,10402.93560,E,29.72,119.18,130121,,,A,V*3F
$GNRMC,080102.000,A,3037.50438,N,10402.94417,E,30.88,118.63,130121,,,A,V*3A
$GNRMC,080103.000,A,3037.50021,N,10402.95305,E,31.78,118.67,130121,,,A,V*38
$GNRMC,080104.000,A,3037.49583,N,10402.96210,E,32.67,119.57,130121,,,A,V*33
$GNRMC,080106.000,A,3037.48663,N,10402.98092,E,34.44,119.23,130121,,,A,V*3F
$GNRMC,080107.000,A,3037.48193,N,10402.99065,E,34.81,119.00,130121,,,A,V*37
$GNRMC,080108.000,A,3037.47729,N,10403.00033,E,34.08,118.92,130121,,,A,V*39
$GNRMC,080109.000,A,3037.47268,N,10403.00982,E,33.56,119.46,130121,,,A,V*3F
$GNRMC,080110.000,A,3037.46811,N,10403.01910,E,32.93,119.77,130121,,,A,V*32
$GNRMC,080111.000,A,3037.46361,N,10403.02820,E,32.32,119.73,130121,,,A,V*31
$GNRMC,080112.000,A,3037.45920,N,10403.03730,E,32.46,118.95,130121,,,A,V*3B
$GNRMC,080113.000,A,3037.45473,N,10403.04661,E,33.74,119.09,130121,,,A,V*37
$GNRMC,080115.000,A,3037.44540,N,10403.06590,E,35.05,119.38,130121,,,A,V*3C
$GNRMC,080116.000,A,3037.44056,N,10403.07579,E,35.63,119.51,130121,,,A,V*34
$GNRMC,080117.000,A,3037.43568,N,10403.08587,E,36.22,119.04,130121,,,A,V*32
$GNRMC,080118.000,A,3037.43086,N,10403.09622,E,36.87,117.76,130121,,,A,V*31
$GNRMC,080119.000,A,3037.42620,N,10403.10688,E,37.41,115.98,130121,,,A,V*3A
$GNRMC,080120.000,A,3037.42169,N,10403.11768,E,37.24,115.47,130121,,,A,V*35
$GNRMC,080121.000,A,3037.41710,N,10403.12827,E,36.51,117.55,130121,,,A,V*3A
$GNRMC,080122.000,A,3037.41230,N,10403.13847,E,35.75,119.29,130121,,,A,V*39
$GNRMC,080123.000,A,3037.40747,N,10403.14832,E,34.66,119.94,130121,,,A,V*3C
$GNRMC,080125.000,A,3037.39816,N,10403.16765,E,34.69,119.11,130121,,,A,V*32
$GNRMC,080126.000,A,3037.39337,N,10403.17754,E,35.75,119.40,130121,,,A,V*32
$GNRMC,080127.000,A,3037.38854,N,10403.18770,E,36.44,118.56,130121,,,A,V*32
$GNRMC,080128.000,A,3037.38366,N,10403.19808,E,37.12,118.38,130121,,,A,V*3C
$GNRMC,080129.000,A,3037.37877,N,10403.20855,E,37.02,118.40,130121,,,A,V*35
$GNRMC,080130.000,A,3037.37397,N,10403.21902,E,36.84,117.68,130121,,,A,V*30
$GNRMC,080131.000,A,3037.36944,N,10403.22947,E,35.99,115.65,130121,,,A,V*36
$GNRMC,080132.000,A,3037.36543,N,10403.23980,E,34.48,112.79,130121,,,A,V*33
$GNRMC,080134.000,A,3037.35883,N,10403.25972,E,32.27,109.63,130121,,,A,V*32
$GNRMC,080135.000,A,3037.35594,N,10403.26938,E,31.40,108.67,130121,,,A,V*32
$GNRMC,080136.000,A,3037.35320,N,10403.27890,E,30.95,108.47,130121,,,A,V*31
$GNRMC,080137.000,A,3037.35071,N,10403.28839,E,30.71,105.83,130121,,,A,V*34
$GNRMC,080138.000,A,3037.34856,N,10403.29787,E,30.33,103.67,130121,,,A,V*36
$GNRMC,080139.000,A,3037.34675,N,10403.30718,E,29.07,101.71,130121,,,A,V*3C
$GNRMC,080140.000,A,3037.34513,N,10403.31615,E,27.93,101.62,130121,,,A,V*3D
$GNRMC,080141.000,A,3037.34368,N,10403.32484,E,26.95,100.07,130121,,,A,V*3A
$GNRMC,080143.000,A,3037.34164,N,10403.34163,E,25.24,95.59,130121,,,A,V*03
$GNRMC,080144.000,A,3037.34089,N,10403.34970,E,25.03,96.30,130121,,,A,V*05
$GNRMC,080145.000,A,3037.34010,N,10403.35786,E,25.88,96.38,130121,,,A,V*09
$GNRMC,080146.000,A,3037.33936,N,10403.36625,E,26.50,95.14,130121,,,A,V*00
$GNRMC,080147.000,A,3037.33870,N,10403.37490,E,27.54,94.95,130121,,,A,V*02
$GNRMC,080148.000,A,3037.33800,N,10403.38387,E,28.61,95.43,130121,,,A,V*07
$GNRMC,080149.000,A,3037.33728,N,10403.39317,E,29.59,94.94,130121,,,A,V*0A
$GNRMC,080150.000,A,3037.33673,N,10403.40278,E,30.57,93.05,130121,,,A,V*02
$GNRMC,080152.000,A,3037.33678,N,10403.42286,E,32.37,86.98,130121,,,A,V*0C
$GNRMC,080153.000,A,3037.33722,N,10403.43344,E,33.33,87.60,130121,,,A,V*0E
$GNRMC,080154.000,A,3037.33761,N,10403.44437,E,34.57,87.99,130121,,,A,V*09
$GNRMC,080155.000,A,3037.33799,N,10403.45568,E,35.74,87.93,130121,,,A,V*0F
$GNRMC,080156.000,A,3037.33837,N,10403.46747,E,37.48,88.11,130121,,,A,V*03
$GNRMC,080157.000,A,3037.33871,N,10403.47964,E,38.30,88.35,130121,,,A,V*08
$GNRMC,080158.000,A,3037.33910,N,10403.49216,E,39.61,87.87,130121,,,A,V*02
$GNRMC,080159.000,A,3037.33947,N,10403.50509,E,40.86,88.50,130121,,,A,V*02
$GNRMC,080201.000,A,3037.34016,N,10403.53207,E,43.09,88.28,130121,,,A,V*07
$GNRMC,080202.000,A,3037.34043,N,10403.54603,E,43.89,89.15,130121,,,A,V*04
$GNRMC,080203.000,A,3037.34055,N,10403.56032,E,45.06,89.99,130121,,,A,V*01
$GNRMC,080204.000,A,3037.34057,N,10403.57504,E,46.16,90.31,130121,,,A,V*0D
$GNRMC,080205.000,A,3037.34039,N,10403.59000,E,47.07,91.36,130121,,,A,V*0C
$GNRMC,080206.000,A,3037.33997,N,10403.60528,E,47.95,92.35,130121,,,A,V*0B
$GNRMC,080207.000,A,3037.33946,N,10403.62086,E,48.86,92.34,130121,,,A,V*09
$GNRMC,080208.000,A,3037.33897,N,10403.63668,E,49.55,92.01,130121,,,A,V*05
$GNRMC,080210.000,A,3037.33840,N,10403.66918,E,51.04,90.48,130121,,,A,V*09
$GNRMC,080211.000,A,3037.33857,N,10403.68567,E,51.41,88.36,130121,,,A,V*05
$GNRMC,080212.000,A,3037.33895,N,10403.70210,E,50.67,88.67,130121,,,A,V*07
$GNRMC,080213.000,A,3037.33930,N,10403.71821,E,49.28,88.66,130121,,,A,V*03
$GNRMC,080214.000,A,3037.33968,N,10403.73357,E,46.26,88.38,130121,,,A,V*0B
$GNRMC,080215.000,A,3037.33998,N,10403.74794,E,42.78,88.61,130121,,,A,V*0A
$GNRMC,080216.000,A,3037.34024,N,10403.76117,E,39.25,88.60,130121,,,A,V*0A
$GNRMC,080217.000,A,3037.34057,N,10403.77370,E,38.02,88.11,130121,,,A,V*0F
$GNRMC,080218.000,A,3037.34084,N,10403.78567,E,36.45,88.80,130121,,,A,V*04
$GNRMC,080219.000,A,3037.34104,N,10403.79755,E,37.07,89.20,130121,,,A,V*02
$GNRMC,080221.000,A,3037.34173,N,10403.82265,E,40.59,87.74,130121,,,A,V*0F
$GNRMC,080222.000,A,3037.34205,N,10403.83602,E,42.38,88.89,130121,,,A,V*02
$GNRMC,080223.000,A,3037.34225,N,10403.84989,E,43.87,89.15,130121,,,A,V*0B
$GNRMC,080224.000,A,3037.34256,N,10403.86425,E,44.86,88.08,130121,,,A,V*0A
$GNRMC,080225.000,A,3037.34290,N,10403.87857,E,44.42,88.70,130121,,,A,V*0E
$GNRMC,080226.000,A,3037.34329,N,10403.89317,E,45.51,88.35,130121,,,A,V*0D
$GNRMC,080227.000,A,3037.34366,N,10403.90735,E,43.04,88.24,130121,,,A,V*0D
$GNRMC,080229.000,A,3037.34434,N,10403.93472,E,42.36,88.41,130121,,,A,V*03
$GNRMC,080230.000,A,3037.34461,N,10403.94826,E,41.99,88.84,130121,,,A,V*0E
$GNRMC,080231.000,A,3037.34483,N,10403.96174,E,41.87,89.14,130121,,,A,V*08
$GNRMC,080232.000,A,3037.34507,N,10403.97516,E,41.76,88.64,130121,,,A,V*0F
$GNRMC,080233.000,A,3037.34547,N,10403.98859,E,41.79,87.66,130121,,,A,V*01
$GNRMC,080234.000,A,3037.34581,N,10404.00203,E,41.89,88.85,130121,,,A,V*02
$GNRMC,080235.000,A,3037.34621,N,10404.01548,E,42.03,87.82,130121,,,A,V*0A
$GNRMC,080236.000,A,3037.34678,N,10404.02906,E,42.53,86.88,130121,,,A,V*0E
$GNRMC,080238.000,A,3037.34846,N,10404.05683,E,43.93,85.11,130121,,,A,V*08
$GNRMC,080239.000,A,3037.34958,N,10404.07101,E,44.74,84.41,130121,,,A,V*02
$GNRMC,080240.000,A,3037.35085,N,10404.08546,E,45.59,84.07,130121,,,A,V*00
$GNRMC,080241.000,A,3037.35206,N,10404.10007,E,45.64,85.03,130121,,,A,V*0A
$GNRMC,080242.000,A,3037.35298,N,10404.11465,E,45.33,86.49,130121,,,A,V*00
$GNRMC,080243.000,A,3037.35368,N,10404.12906,E,44.64,87.11,130121,,,A,V*0B
$GNRMC,080244.000,A,3037.35417,N,10404.14327,E,43.75,88.29,130121,,,A,V*0F
$GNRMC,080245.000,A,3037.35444,N,10404.15719,E,42.91,89.10,130121,,,A,V*00
$GNRMC,080247.000,A,3037.35505,N,10404.18475,E,43.31,88.85,130121,,,A,V*04
$GNRMC,080248.000,A,3037.35526,N,10404.19889,E,44.30,89.04,130121,,,A,V*0A
$GNRMC,080249.000,A,3037.35548,N,10404.21325,E,44.82,88.96,130121,,,A,V*06
$GNRMC,080250.000,A,3037.35575,N,10404.22756,E,44.28,88.57,130121,,,A,V*0E
$GNRMC,080251.000,A,3037.35609,N,10404.24182,E,44.11,88.40,130121,,,A,V*02
$GNRMC,080252.000,A,3037.35642,N,10404.25611,E,44.47,88.62,130121,,,A,V*01
$GNRMC,080253.000,A,3037.35672,N,10404.27032,E,43.74,88.62,130121,,,A,V*01
$GNRMC,080254.000,A,3037.35702,N,10404.28412,E,41.91,88.47,130121,,,A,V*07
$GNRMC,080256.000,A,3037.35759,N,10404.31006,E,38.14,88.88,130121,,,A,V*02
$GNRMC,080257.000,A,3037.35781,N,10404.32185,E,35.08,89.06,130121,,,A,V*08
$GNRMC,080258.000,A,3037.35792,N,10404.33221,E,29.62,90.01,130121,,,A,V*07
$GNRMC,080259.000,A,3037.35804,N,10404.34108,E,25.32,88.90,130121,,,A,V*01
$GNRMC,080300.000,A,3037.35816,N,10404.34926,E,25.21,89.10,130121,,,A,V*00
$GNRMC,080301.000,A,3037.35825,N,10404.35749,E,25.83,89.39,130121,,,A,V*04
$GNRMC,080302.000,A,3037.35833,N,10404.36610,E,27.42,89.63,130121,,,A,V*0E
$GNRMC,080303.000,A,3037.35846,N,10404.37506,E,28.03,88.37,130121,,,A,V*02
$GNRMC,080304.000,A,3037.35872,N,10404.38425,E,28.99,88.10,130121,,,A,V*0B
$GNRMC,080306.000,A,3037.35930,N,10404.40312,E,28.80,87.80,130121,,,A,V*0C
$GNRMC,080307.000,A,3037.35966,N,10404.41198,E,26.39,86.85,130121,,,A,V*07
$GNRMC,080308.000,A,3037.36011,N,10404.41951,E,21.10,85.64,130121,,,A,V*0F
$GNRMC,080309.000,A,3037.36075,N,10404.42585,E,18.59,80.70,130121,,,A,V*0D
$GNRMC,080310.000,A,3037.36151,N,10404.43094,E,13.43,79.27,130121,,,A,V*02
$GNRMC,080311.000,A,3037.36212,N,10404.43509,E,12.93,82.34,130121,,,A,V*0C
$GNRMC,080312.000,A,3037.36250,N,10404.43934,E,13.60,85.47,130121,,,A,V*05
$GNRMC,080314.000,A,3037.36269,N,10404.4
$GNRMC,080316.000,A,3037.36297,N,10404.46256,E,22.19,87.78,130121,,,A,V*02
$GNRMC,080317.000,A,3037.36319,N,10404.46989,E,23.68,88.54,130121,,,A,V*0B
$GNRMC,080318.000,A,3037.36337,N,10404.47727,E,22.56,88.96,130121,,,A,V*01
$GNRMC,080319.000,A,3037.36354,N,10404.48428,E,21.17,88.56,130121,,,A,V*0C
$GNRMC,080320.000,A,3037.36373,N,10404.49096,E,20.32,87.93,130121,,,A,V*03
$GNRMC,080321.000,A,3037.36393,N,10404.49733,E,19.17,88.29,130121,,,A,V*07
$GNRMC,080322.000,A,3037.36407,N,10404.50311,E,17.00,89.33,130121,,,A,V*00
$GNRMC,080324.000,A,3037.36422,N,10404.51244,E,12.77
$GNRMC,080325.
$GNRMC,080326.000,A,3037.36447,N,10404.52035,E,12.08,88.34,130121,,,A,V*0C
$GNRMC,080327.000,A,3037.36458,N,10404.52423,E,12.09,88.76,130121,,,A,V*07
$GNRMC,080328.000,A,3037.36467,N,10404.52832,E,13.14,88.87,130121,,,A,V*0B
$GNRMC,080329.000,A,3037.36475,N,10404.53280,E,14.51,88.88,130121,,,A,V*02
$GNRMC,080330.000,A,3037.36485,N,10404.53763,E,15.44,88.71,130121,,,A,V*0E
$GNRMC,080332.000,A,3037.36503,N,10404.54755,E,15.05,88.84,130121,,,A,V*0E
$GNRMC,080333.000,A,3037.36513,N,10404.55201,E,12.74,88.15,130121,,,A,V*02
$GNRMC,080334.000,A,3037.36524,N,10404.55546,E,8.72,88.55,130121
$GNRMC,080335.000,A,3037.365
$GNRMC,080336.000,A,3037.36534,N,10404.56040,E,6.14,88.80,130121,,,A,V*39
$GNRMC,080337.000,A,3037.36537,N,10404.56214,E,4.60,88.65,130121,,,A,V*32
$GNRMC,080338.000,A,3037.36541,N,10404.56369,E,4.98,88.85,130121,,,A,V*3E
$GNRMC,080339.000,A,3037.36544,N,10404.56533,E,5.00,88.05,130121,,,A,V*3B
$GNRMC,080340.000,A,3037.36550,N,10404.56691,E,4.87,87.58,130121,,,A,V*32
$GNRMC,080342.000,A,3037.36559,N,10404.57103,E,9.00,90.10,130121,,,A,V*3C
$GNRMC,080343.000,A,3037.36564,N,10404.57381,E,8.40,88.79,13012
$GNRMC,080344.000,A,3037.36
$GNRMC,080345.000,A,3037.36577,N,10404.57930,E,8.85,88.43,130121,,,A,V*3C
$GNRMC,080346.000,A,3037.36585,N,10404.58255,E,11.27,88.31,130121,,,A,V*00
$GNRMC,080347.000,A,3037.36594,N,10404.58642,E,13.02,89.06,130121,,,A,V*03
$GNRMC,080348.000,A,3037.36603,N,10404.59056,E,12.94,89.12,130121,,,A,V*08
$GNRMC,080349.000,A,3037.36610,N,10404.59476,E,13.09,89.23,130121,,,A,V*0A
$GNRMC,080351.000,A,3037.36628,N,10404.60385,E,14.17,88.75,130121,,,A,V*03
$GNRMC,080352.000,A,3037.36636,N,10404.60814,E,12.67,89.24,130121,,,A,V*08
$GNRMC,080353.000,A,3037.36642,N,10404.61210,E,11
$GNRMC,0803
$GNRMC,080355.000,A,3037.36650,N,10404.61939,E,11.00,89.41,130121,,,A,V*01
$GNRMC,080356.000,A,3037.36658,N,10404.62296,E,11.05,88.49,130121,,,A,V*0B
$GNRMC,080357.000,A,3037.36672,N,10404.62649,E,10.88,87.07,130121,,,A,V*05
$GNRMC,080359.000,A,3037.36702,N,10404.63320,E,10.09,88.36,130121,,,A,V*02
$GNRMC,080400.000,A,3037.36711,N,10404.63673,E,11.64,88.63,130121,,,A,V*02
$GNRMC,080401.000,A,3037.36717,N,10404.64077,E,13.38,89.44,130121,,,A,V*0F
$GNRMC,080402.000,A,3037.36726,N,10404.64537,E,15.11,88.77,130121,,,A,V*03
$GNRMC,080403.000,A,3037.36735,N,10404.65046,E,16
$GNRMC,080404
$GNRMC,080405.000,A,3037.36759,N,10404.66153,E,17.09,88.11,130121,,,A,V*03
$GNRMC,080406.000,A,3037.36776,N,10404.66685,E,16.25,88.17,130121,,,A,V*08
$GNRMC,080408.000,A,3037.36807,N,10404.67656,E,13.95,88.43,130121,,,A,V*0F
$GNRMC,080409.000,A,3037.36819,N,10404.68112,E,14.11,88.48,130121,,,A,V*09
$GNRMC,080410.000,A,3037.36832,N,10404.68583,E,14.96,88.68,130121,,,A,V*09
$GNRMC,080411.000,A,3037.36839,N,10404.69086,E,16.20,89.79,130121,,,A,V*0C
$GNRMC,080412.000,A,3037.36843,N,10404.69603,E,16.03,89.53,13
$GNRMC,080413.000,A,3037.
$GNRMC,080414.000,A,3037.36861,N,10404.70673,E,17.71,88.87,130121,,,A,V*05
$GNRMC,080415.000,A,3037.36868,N,10404.71245,E,17.90,89.42,130121,,,A,V*0A
$GNRMC,080417.000,A,3037.36890,N,10404.72412,E,18.36,88.80,130121,,,A,V*04
$GNRMC,080418.000,A,3037.36902,N,10404.73018,E,19.22,88.80,130121,,,A,V*0A
$GNRMC,080419.000,A,3037.36913,N,10404.73644,E,19.86,88.70,130121,,,A,V*05
$GNRMC,080420.000,A,3037.36929,N,10404.74295,E,20.59,88.64,130121,,,A,V*04
$GNRMC,080421.000,A,3037.36946,N,10404.74969,E,21.4
$GNRMC,080422.000,A,3037.36963,N,10404.75677,
$GNRMC,
$GNRMC,080424.000,A,3037.36991,N,10404.77184,E,24.40,88.66,130121,,,A,V*0D
$GNRMC,080425.000,A,3037.37006,N,10404.77964,E,24.26,88.73,130121,,,A,V*08
$GNRMC,080426.000,A,3037.37022,N,10404.78729,E,23.29,88.45,130121,,,A,V*08
$GNRMC,080428.000,A,3037.37060,N,10404.80130,E,21.02,88.13,130121,,,A,V*01
$GNRMC,080429.000,A,3037.37081,N,10404.80812,E,21.16,87.80,130121,,,A,V*06
$GNRMC,080430.000,A,3037.37098,N,10404.81473,E,20.02,88.67,130121,,,A,V*0E
$GNRMC,080431.000,A,3037.37108,N,10404.82043,E,15
$GNRMC,080432.000,A
$GNRMC,080433.000,A,3037.37122,N,10404.82976,E,14.00,88.89,130121,,,A,V*03
$GNRMC,080434.000,A,3037.37130,N,10404.83421,E,13.67,88.09,130121,,,A,V*07
$GNRMC,080436.000,A,3037.37163,N,10404.84365,E,16.29,86.60,130121,,,A,V*0D
$GNRMC,080437.000,A,3037.37182,N,10404.84916,E,17.99,88.17,130121,,,A,V*09
$GNRMC,080438.000,A,3037.37193,N,10404.85538,E,20.42,89.33,130121,,,A,V*02
$GNRMC,080439.000,A,3037.37201,N,10404.86227,E,22.39,89.36,130121,,,A,V*0A
$GNRMC,080440.000,A,3037.37209,N,10404.86956,E,23.07,89.40,130121,,,A,V*0C
$GNRMC,080441.000,A,3037.37218,N,10404.87672,E,22.00,89.03,130121,,,A,V
$GNRMC,080442.000,A,3037.37229,N,1040
$GNRMC,080444.000,A,3037.37264,N,10404.89836,E,23.60,88.34,130121,,,A,V*08
$GNRMC,080445.000,A,3037.37284,N,10404.90589,E,22.96,88.24,130121,,,A,V*0F
$GNRMC,080446.000,A,3037.37304,N,10404.91305,E,21.53,87.95,130121,,,A,V*09
$GNRMC,080447.000,A,3037.37320,N,10404.92002,E,21.57,88.74,130121,,,A,V*0D
$GNRMC,080448.000,A,3037.37332,N,10404.92708,E,22.07,88.98,130121,,,A,V*08
$GNRMC,080449.000,A,3037.37343,N,10404.93422,E,22.22,88.99,130121,,,A,V*03
$GNRMC,080450.000,A,3037.37356,N,10404.94088,E,19.55,88.54,130121,,,A
$GNRMC,080451.000,A,3037.37373,
$GNRMC,080452.000,A,3037.37386,N,10404.95347,E,19.09,88.76,130121,,,A,V*02
$GNRMC,080454.000,A,3037.37401,N,10404.96627,E,21.02,88.89,130121,,,A,V*0C
$GNRMC,080455.000,A,3037.37416,N,10404.97331,E,22.54,88.48,130121,,,A,V*05
$GNRMC,080456.000,A,3037.37434,N,10404.98086,E,23.96,88.48,130121,,,A,V*09
$GNRMC,080457.000,A,3037.37450,N,10404.98853,E,23.63,88.79,130121,,,A,V*02
$GNRMC,080458.000,A,3037.37462,N,10404.99594,E,22.42,89.12,130121,,,A,V*05
$GNRMC,080459.000,A,3037.37472,N,10405.00328,E,22.86,89.19,130121,,,A,V*06
$GNRMC,080500.000,A,3037.37484,N,10
$GNRMC,080501.000,A,3037.37504,N,10405.01827,E,23.37,87.67,130121,,,A,V*03
$GNRMC,080503.000,A,3037.37543,N,10405.03351,E,23.89,88.95,130121,,,A,V*0D
$GNRMC,080504.000,A,3037.37555,N,10405.04148,E,25.36,89.49,130121,,,A,V*02
$GNRMC,080505.000,A,3037.37567,N,10405.04993,E,26.88,88.77,130121,,,A,V*06
$GNRMC,080506.000,A,3037.37586,N,10405.05872,E,27.66,88.64,130121,,,A,V*06
$GNRMC,080507.000,A,3037.37612,N,10405.06787,E,29.08,87.80,130121,,,A,V*0C
$GNRMC,080508.000,A,3037.37643,N,10405.07742,E,30.04,87.8
$GNRMC,080509.000,A
$GNRMC,080511.000,A,3037.37717,N,10405.10803,E,33.20,88.87,130121,,,A,V*02
$GNRMC,080512.000,A,3037.37738,N,10405.11888,E,34.07,88.76,130121,,,A,V*02
$GNRMC,080513.000,A,3037.37761,N,10405.13001,E,35.00,88.65,130121,,,A,V*00
$GNRMC,080514.000,A,3037.37785,N,10405.14134,E,35.34,88.60,130121,,,A,V*0F
$GNRMC,080515.000,A,3037.37814,N,10405.15286,E,36.13,88.42,130121,,,A,V*04
$GNRMC,080516.000,A,3037.37843,N,10405.16466,E,36.82,88.47,130121,,,A,V*03
$GNRMC,080517.000,A,3037.37860,N,10405.17671,E,37.86,89.68,130121,,,A,V*0F
$GNRMC,080518.000,A,3037.37856,N,10405.18904,E,38.64,90.77,130121,,,A,V*02
$GNRMC,080519.000,A,3037.37843,N,10405.20159,E,39.45,90.83,130
$GNRMC,080521.000,A,3037.37827,N,10405.22734,E,40.44,90.11,130121,,,A,V*07
$GNRMC,080522.000,A,3037.37841,N,10405.24052,E,41.44,88.74,130121,,,A,V*0E
$GNRMC,080523.000,A,3037.37865,N,10405.25374,E,40.81,88.97,130121,,,A,V*0A
$GNRMC,080524.000,A,3037.37881,N,10405.26669,E,39.80,89.40,130121,,,A,V*09
$GNRMC,080525.000,A,3037.37896,N,10405.27942,E,39.23,88.85,130121,,,A,V*08
$GNRMC,080526.000,A,3037.37921,N,10405.29176,E,37.56,88.43,130121,,,A,V*01
$GNRMC,080527.000,A,3037.37947,N,10405.30347,E,35.19,88.47,130121,,,A,V*05
$GNRMC,080528.000,A,3037.37966,N,10405.31460,E
$GNRMC
$GNRMC,080531.000,A,3037.38095,N,10405.34638,E,32.49,85.02,130121,,,A,V*0C
$GNRMC,080532.000,A,3037.38156,N,10405.35713,E,33.80,87.21,130121,,,A,V*0F
$GNRMC,080533.000,A,3037.38199,N,10405.36811,E,34.65,87.79,130121,,,A,V*02
$GNRMC,080534.000,A,3037.38256,N,10405.37935,E,35.60,86.25,130121,,,A,V*0F
$GNRMC,080535.000,A,3037.38318,N,10405.39079,E,35.86,87.54,130121,,,A,V*05
$GNRMC,080536.000,A,3037.38365,N,10405.40223,E,35.22,88.10,130121,,,A,V*0E
$GNRMC,080537.000,A,3037.38401,N,10405.41346,E,34.46,88.34,130121,,,A,V*0C
$GNRMC,080538.000,A,3037.38429,N,10405.42454,E,34.35,88.79,13012
$GNRMC,080540.000,A,3037.38482,N,10405.44744,E,36.45,88.30,130121,,,A,V*01
$GNRMC,080541.000,A,3037.38526,N,10405.45900,E,35.54,87.26,130121,,,A,V*0B
$GNRMC,080542.000,A,3037.38581,N,10405.47057,E,36.15,86.77,130121,,,A,V*0F
$GNRMC,080543.000,A,3037.38666,N,10405.48250,E,37.97,84.00,130121,,,A,V*07
$GNRMC,080544.000,A,3037.38854,N,10405.49458,E,38.12,75.80,130121,,,A,V*04
$GNRMC,080545.000,A,3037.39131,N,10405.50644,E,38.27,73.79,130121,,,A,V*0F
$GNRMC,080546.000,A,3037.39455,N,10405.51813,E,37.61,70.86,130121,,,A,V*08
$GNRMC,080547.000,A,3037.39833,N,10405.52938,E,37.
$GNRMC,080549.000,A,3037.40747,N,10405.55091,E,36.37,60.28,130121,,,A,V*08
$GNRMC,080550.000,A,3037.41265,N,10405.56049,E,34.08,55.94,130121,,,A,V*0D
$GNRMC,080551.000,A,3037.41790,N,10405.56915,E,31.51,53.79,130121,,,A,V*0F
$GNRMC,080552.000,A,3037.42322,N,10405.57715,E,30.76,51.46,130121,,,A,V*07
$GNRMC,080553.000,A,3037.42893,N,10405.58458,E,30.69,46.56,130121,,,A,V*0B
$GNRMC,080554.000,A,3037.43497,N,10405.59156,E,30.33,43.31,130121,,,A,V*04
$GNRMC,080555.000,A,3037.44146,N,10405.59817,E,31.70,40.38,130121,,,A,V*0B
$GNRMC,080556.000,A,3037.44833,N,10405.60488,E,32.63,40.02,130121,,,A,V*0B
$GNRMC,080558.000,A,3037.46319,N,10405.61773,E,33.65,33.74,130121,,,A,V*00
$GNRMC,080559.000,A,3037.47085,N,10405.62358,E,31.97,33.18,130121,,,A,V*0D
$GNRMC,080600.000,A,3037.47792,N,10405.62902,E,29.08,33.87,130121,,,A,V*0F
$GNRMC,080601.000,A,3037.48468,N,10405.63439,E,29.34,35.33,130121,,,A,V*05
$GNRMC,080602.000,A,3037.49150,N,10405.64009,E,30.71,36.55,130121,,,A,V*03
$GNRMC,080603.000,A,3037.49862,N,10405.64609,E,32.01,36.08,130121,,,A,V*01
$GNRMC,080604.000,A,3037.50595,N,10405.65212,E,32.62,34.93,130121,,,A,V*01
$GNRMC,080606.000,A,3037.52158,N,10405.66450,E,35.12,33.98,130121,,,A,V*0B
$GNRMC,080607.000,A,3037.52980,N,10405.67088,E,35.91,33.75,130121,,,A,V*0F
$GNRMC,080608.000,A,3037.53826,N,10405.67738,E,36.65,33.55,130121,,,A,V*0A
$GNRMC,080609.000,A,3037.54674,N,10405.68370,E,35.67,32.27,130121,,,A,V*07
$GNRMC,080610.000,A,3037.55506,N,10405.68993,E,35.42,33.25,130121,,,A,V*0B
$GNRMC,080611.000,A,3037.56312,N,10405.69607,E,34.11,33.67,130121,,,A,V*08
$GNRMC,080612.000,A,3037.57099,N,10405.70207,E,33.72,33.17,130121,,,A,V*03
$GNRMC,080614.000,A,3037.58720,N,10405.71425,E,35.54,33.36,130121,,,A,V*09
$GNRMC,080615.000,A,3037.59557,N,10405.72064,E,36.34,33.42,130121,,,A,V*0F
$GNRMC,080616.000,A,3037.60414,N,10405.72714,E,37.03,33.13,130121,,,A,V*01
$GNRMC,080617.000,A,3037.61280,N,10405.73381,E,37.61,33.96,130121,,,A,V*0A
$GNRMC,080618.000,A,3037.62167,N,10405.74068,E,38.77,33.67,130121,,,A,V*09
$GNRMC,080619.000,A,3037.63075,N,10405.74755,E,39.27,32.90,130121,,,A,V*0F
$GNRMC,080620.000,A,3037.64005,N,10405.75449,E,40.06,32.93,130121,,,A,V*04
$GNRMC,080621.000,A,3037.64949,N,10405.76154,E,40.57,33.16,130121,,,A,V*06
$GNRMC,080622.000,A,3037.65881,N,10405.76857,E,39.45,33.15,130121,,,A,V*05
$GNRMC,080623.000,A,3037.66779,N,10405.77535,E,37.64,33.14,130121,,,A,V*0B
$GNRMC,080625.000,A,3037.68492,N,10405.78826,E,35.57,32.99,130121,,,A,V*03
$GNRMC,080626.000,A,3037.69319,N,10405.79445,E,34.92,32.73,130121,,,A,V*01
$GNRMC,080627.000,A,3037.70129,N,10405.80059,E,34.51,33.47,130121,,,A,V*0F
$GNRMC,080628.000,A,3037.70947,N,10405.80681,E,35.50,33.24,130121,,,A,V*06
$GNRMC,080629.000,A,3037.71778,N,10405.81321,E,35.84,33.83,130121,,,A,V*0E
$GNRMC,080630.000,A,3037.72607,N,10405.81950,E,35.26,32.99,130121,,,A,V*02
$GNRMC,080631.000,A,3037.73437,N,10405.82573,E,35.68,32.79,130121,,,A,V*09
$GNRMC,080633.000,A,3037.75137,N,10405.83806,E,36.39,31.31,130121,,,A,V*0E
$GNRMC,080634.000,A,3037.76021,N,10405.84425,E,37.39,31.09,130121,,,A,V*0C
$GNRMC,080635.000,A,3037.76933,N,10405.85042,E,38.11,29.58,130121,,,A,V*0B
$GNRMC,080636.000,A,3037.77862,N,10405.85647,E,38.44,29.03,130121,,,A,V*01
$GNRMC,080637.000,A,3037.78810,N,10405.86259,E,39.42,29.11,130121,,,A,V*06
$GNRMC,080638.000,A,3037.79780,N,10405.86877,E,39.83,28.62,130121,,,A,V*00
$GNRMC,080639.000,A,3037.80757,N,10405.87493,E,39.95,28.56,130121,,,A,V*0A
$GNRMC,080640.000,A,3037.81725,N,10405.88097,E,38.91,28.17,130121,,,A,V*0F
$GNRMC,080641.000,A,3037.82672,N,10405.88683,E,38.08,28.00,130121,,,A,V*0B
$GNRMC,080643.000,A,3037.84461,N,10405.89789,E,34.64,28.34,130121,,,A,V*04
$GNRMC,080644.000,A,3037.85300,N,10405.90316,E,33.78,28.46,130121,,,A,V*07
$GNRMC,080645.000,A,3037.86122,N,10405.90824,E,32.83,27.97,130121,,,A,V*0B
$GNRMC,080646.000,A,3037.86925,N,10405.91313,E,32.03,27.82,130121,,,A,V*05
$GNRMC,080647.000,A,3037.87714,N,10405.91800,E,31.96,28.36,130121,,,A,V*0F
$GNRMC,080648.000,A,3037.88518,N,10405.92300,E,33.27,28.36,130121,,,A,V*01
$GNRMC,080649.000,A,3037.89340,N,10405.92786,E,32.91,25.90,130121,,,A,V*0D
$GNRMC,080650.000,A,3037.90170,N,10405.93241,E,32.73,24.86,130121,,,A,V*09
$GNRMC,080652.000,A,3037.91849,N,10405.94203,E,33.61,27.57,130121,,,A,V*05
$GNRMC,080653.000,A,3037.92667,N,10405.94694,E,32.26,27.37,130121,,,A,V*0B
$GNRMC,080654.000,A,3037.93455,N,10405.95172,E,31.19,27.97,130121,,,A,V*05
$GNRMC,080655.000,A,3037.94211,N,10405.95638,E,30.18,27.97,130121,,,A,V*0C
$GNRMC,080656.000,A,3037.94913,N,10405.96074,E,27.06,28.21,130121,,,A,V*00
$GNRMC,080657.000,A,3037.95573,N,10405.96486,E,26.48,28.43,130121,,,A,V*0C
$GNRMC,080658.000,A,3037.96232,N,10405.96894,E,26.74,27.98,130121,,,A,V*0B
$GNRMC,080659.000,A,3037.96903,N,10405.97308,E,27.63,27.97,130121,,,A,V*04
$GNRMC,080701.000,A,3037.98340,N,10405.98204,E,30.32,28.43,130121,,,A,V*0D
$GNRMC,080702.000,A,3037.99093,N,10405.98673,E,31.18,28.33,130121,,,A,V*08
$GNRMC,080703.000,A,3037.99877,N,10405.99161,E,32.75,28.69,130121,,,A,V*09
$GNRMC,080704.000,A,3038.00696,N,10405.99663,E,33.93,27.48,130121,,,A,V*00
$GNRMC,080705.000,A,3038.01534,N,10406.00176,E,34.27,28.36,130121,,,A,V*05
$GNRMC,080706.000,A,3038.02367,N,10406.00691,E,33.82,28.33,130121,,,A,V*06
$GNRMC,080707.000,A,3038.03176,N,10406.01199,E,32.23,28.68,130121,,,A,V*0E
$GNRMC,080708.000,A,3038.03961,N,10406.01681,E,31.50,27.89,130121,,,A,V*06
$GNRMC,080709.000,A,3038.04726,N,10406.02158,E,31.12,28.31,130121,,,A,V*07
$GNRMC,080710.000,A,3038.05503,N,10406.02647,E,32.24,28.78,130121,,,A,V*09
$GNRMC,080712.000,A,3038.07131,N,10406.03662,E,34.02,28.53,130121,,,A,V*01
$GNRMC,080713.000,A,3038.07976,N,10406.04183,E,34.55,28.16,130121,,,A,V*07
$GNRMC,080714.000,A,3038.08813,N,10406.04706,E,33.97,28.66,130121,,,A,V*08
$GNRMC,080715.000,A,3038.09640,N,10406.05227,E,33.73,28.73,130121,,,A,V*09
$GNRMC,080716.000,A,3038.10453,N,10406.05744,E,33.06,29.04,130121,,,A,V*01
$GNRMC,080717.000,A,3038.11252,N,10406.06260,E,32.55,29.66,130121,,,A,V*05
$GNRMC,080718.000,A,3038.12043,N,10406.06789,E,32.45,30.78,130121,,,A,V*0F
$GNRMC,080720.000,A,3038.13607,N,10406.07855,E,32.76,30.50,130121,,,A,V*06
$GNRMC,080721.000,A,3038.14384,N,10406.08368,E,31.62,29.44,130121,,,A,V*0F
$GNRMC,080722.000,A,3038.15144,N,10406.08849,E,30.50,28.52,130121,,,A,V*0D
$GNRMC,080723.000,A,3038.15886,N,10406.09317,E,30.13,28.85,130121,,,A,V*07
$GNRMC,080724.000,A,3038.16609,N,10406.09766,E,28.94,27.74,130121,,,A,V*0F
$GNRMC,080725.000,A,3038.17305,N,10406.10195,E,27.81,28.26,130121,,,A,V*07
$GNRMC,080726.000,A,3038.17974,N,10406.10631,E,27.39,30.27,130121,,,A,V*0A
$GNRMC,080727.000,A,3038.18615,N,10406.11074,E,26.41,31.17,130121,,,A,V*06
$GNRMC,080729.000,A,3038.19817,N,10406.11938,E,24.73,31.49,130121,,,A,V*0C
$GNRMC,080730.000,A,3038.20405,N,10406.12348,E,24.71,30.97,130121,,,A,V*0F
$GNRMC,080731.000,A,3038.20992,N,10406.12741,E,24.17,29.58,130121,,,A,V*0B
$GNRMC,080732.000,A,3038.21575,N,10406.13121,E,24.04,29.45,130121,,,A,V*03
$GNRMC,080733.000,A,3038.22174,N,10406.13512,E,25.40,29.82,130121,,,A,V*0A
$GNRMC,080734.000,A,3038.22772,N,10406.13898,E,24.10,29.26,130121,,,A,V*08
$GNRMC,080735.000,A,3038.23324,N,10406.14266,E,22.07,30.13,130121,,,A,V*0D
$GNRMC,080737.000,A,3038.24370,N,10406.14964,E,21.29,30.77,130121,,,A,V*0D
$GNRMC,080738.000,A,3038.24871,N,10406.15310,E,21.11,31.56,130121,,,A,V*09
$GNRMC,080739.000,A,3038.25374,N,10406.15647,E,21.06,29.78,130121,,,A,V*03
$GNRMC,080740.000,A,3038.25879,N,10406.15977,E,21.35,28.61,130121,,,A,V*0E
$GNRMC,080741.000,A,3038.26400,N,10406.16304,E,22.00,27.90,130121,,,A,V*07
$GNRMC,080742.000,A,3038.26941,N,10406.16634,E,22.69,28.32,130121,,,A,V*02
$GNRMC,080743.000,A,3038.27488,N,10406.16973,E,23.03,28.39,130121,,,A,V*00
$GNRMC,080744.000,A,3038.28057,N,10406.17327,E,24.05,27.54,130121,,,A,V*01
$GNRMC,080745.000,A,3038.28643,N,10406.17716,E,25.18,28.85,130121,,,A,V*0B
$GNRMC,080747.000,A,3038.29870,N,10406.18497,E,25.57,27.87,130121,,,A,V*05
$GNRMC,080748.000,A,3038.30490,N,10406.18869,E,25.41,27.57,130121,,,A,V*07
$GNRMC,080749.000,A,3038.31094,N,10406.19239,E,24.40,27.31,130121,,,A,V*09
$GNRMC,080750.000,A,3038.31680,N,10406.19606,E,24.22,28.42,130121,,,A,V*05
$GNRMC,080751.000,A,3038.32280,N,10406.19991,E,25.29,28.65,130121,,,A,V*0D
$GNRMC,080752.000,A,3038.32895,N,10406.20393,E,25.84,29.95,130121,,,A,V*0B
$GNRMC,080753.000,A,3038.33501,N,10406.20778,E,24.77,27.97,130121,,,A,V*0B
$GNRMC,080755.000,A,3038.34696,N,10406.21470,E,23.29,26.12,130121,,,A,V*0D
$GNRMC,080756.000,A,3038.35247,N,10406.21797,E,21.64,28.03,130121,,,A,V*08
$GNRMC,080757.000,A,3038.35759,N,10406.22085,E,19.78,24.71,130121,,,A,V*0B
$GNRMC,080758.000,A,3038.36267,N,10406.22371,E,20.23,26.53,130121,,,A,V*01
$GNRMC,080759.000,A,3038.36744,N,10406.22636,E,17.77,27.05,130121,,,A,V*05
$GNRMC,080800.000,A,3038.37171,N,10406.22902,E,16.92,28.26,130121,,,A,V*0B
$GNRMC,080801.000,A,3038.37584,N,10406.23173,E,16.74,29.90,130121,,,A,V*0F
$GNRMC,080802.000,A,3038.38018,N,10406.23451,E,18.17,26.99,130121,,,A,V*0B
$GNRMC,080804.000,A,3038.38943,N,10406.24027,E,18.63,28.21,130121,,,A,V*06
$GNRMC,080805.000,A,3038.39407,N,10406.24325,E,19.15,28.11,130121,,,A,V*09
$GNRMC,080806.000,A,3038.39905,N,10406.24614,E,20.58,24.74,130121,,,A,V*0E
$GNRMC,080807.000,A,3038.40423,N,10406.24893,E,19.95,24.15,130121,,,A,V*05
$GNRMC,080808.000,A,3038.40948,N,10406.25148,E,20.17,22.53,130121,,,A,V*00
$GNRMC,080809.000,A,3038.41476,N,10406.25396,E,20.02,22.69,130121,,,A,V*0C
$GNRMC,080811.000,A,3038.42404,N,10406.25841,E,15.38,24.05,130121,,,A,V*01
$GNRMC,080812.000,A,3038.42676,N,10406.25976,E,10.16,22.54,130121,,,A,V*0B
$GNRMC,080813.000,A,3038.42881,N,10406.26100,E,7.74,23.86,130121,,,A,V*3A
$GNRMC,080814.000,A,3038.42974,N,10406.26218,E,2.92,31.12,130121,,,A,V*3F
$GNRMC,080815.000,A,3038.42955,N,10406.26274,E,1.67,31.12,130121,,,A,V*3E
$GNRMC,080816.000,A,3038.42884,N,10406.26291,E,1.44,31.12,130121,,,A,V*3A
$GNRMC,080817.000,A,3038.42827,N,10406.26305,E,1.06,31.12,130121,,,A,V*38
$GNRMC,080818.000,A,3038.42791,N,10406.26322,E,0.69,31.12,130121,,,A,V*38
$GNRMC,080819.000,A,3038.42757,N,10406.26350,E,0.73,31.12,130121,,,A,V*3D
$GNRMC,080821.000,A,3038.42685,N,10406.26382,E,0.88,31.12,130121,,,A,V*33
$GNRMC,080822.000,A,3038.42664,N,10406.26390,E,0.22,31.12,130121,,,A,V*3C
$GNRMC,080823.000,A,3038.42636,N,10406.26403,E,0.00,31.12,130121,,,A,V*37
$GNRMC,080824.000,A,3038.42617,N,10406.26409,E,0.00,31.12,130121,,,A,V*39
$GNRMC,080825.000,A,3038.42582,N,10406.26424,E,0.00,31.12,130121,,,A,V*38
$GNRMC,080826.000,A,3038.42535,N,10406.26438,E,1.02,31.12,130121,,,A,V*39
$GNRMC,080827.000,A,3038.42488,N,10406.26447,E,0.73,31.12,130121,,,A,V*30
$GNRMC,080828.000,A,3038.42459,N,10406.26464,E,0.57,31.12,130121,,,A,V*34
$GNRMC,080829.000,A,3038.42443,N,10406.26481,E,0.54,31.12,130121,,,A,V*36
$GNRMC,080831.000,A,3038.42388,N,10406.26607,E,1.62,31.12,130121,,,A,V*37
$GNRMC,080832.000,A,3038.42364,N,10406.26665,E,1.29,31.12,130121,,,A,V*3D
$GNRMC,080833.000,A,3038.42329,N,10406.26717,E,0.75,31.12,130121,,,A,V*39
$GNRMC,080834.000,A,3038.42292,N,10406.26744,E,0.93,31.12,130121,,,A,V*31
$GNRMC,080835.000,A,3038.42253,N,10406.26770,E,0.87,31.12,130121,,,A,V*3F
$GNRMC,080836.000,A,3038.42241,N,10406.26787,E,0.00,31.12,130121,,,A,V*38
$GNRMC,080837.000,A,3038.42225,N,10406.26807,E,0.00,31.12,130121,,,A,V*3C
$GNRMC,080839.000,A,3038.42203,N,10406.26844,E,0.00,31.12,130121,,,A,V*31
$GNRMC,080840.000,A,3038.42195,N,10406.26859,E,0.00,31.12,130121,,,A,V*3F
$GNRMC,080841.000,A,3038.42184,N,10406.26872,E,0.00,31.12,130121,,,A,V*37
$GNRMC,080842.000,A,3038.42169,N,10406.26880,E,0.00,31.12,130121,,,A,V*3A
$GNRMC,080843.000,A,3038.42154,N,10406.26885,E,0.00,31.12,130121,,,A,V*30
$GNRMC,080844.000,A,3038.42148,N,10406.26912,E,0.60,31.12,130121,,,A,V*33
$GNRMC,080845.000,A,3038.42132,N,10406.26921,E,0.00,31.12,130121,,,A,V*39
$GNRMC,080846.000,A,3038.42117,N,10406.26930,E,0.00,31.12,130121,,,A,V*3D
$GNRMC,080848.000,A,3038.42088,N,10406.26945,E,0.00,31.12,130121,,,A,V*36
$GNRMC,080849.000,A,3038.42074,N,10406.26954,E,0.00,31.12,130121,,,A,V*34
$GNRMC,080850.000,A,3038.42074,N,10406.26953,E,0.40,31.12,130121,,,A,V*3F
$GNRMC,080851.000,A,3038.42064,N,10406.26968,E,0.00,31.12,130121,,,A,V*33
$GNRMC,080852.000,A,3038.42054,N,10406.26982,E,0.00,31.12,130121,,,A,V*37
$GNRMC,080853.000,A,3038.42049,N,10406.26996,E,0.00,31.12,130121,,,A,V*3F
$GNRMC,080854.000,A,3038.42036,N,10406.27005,E,0.00,31.12,130121,,,A,V*32
$GNRMC,080855.000,A,3038.42023,N,10406.27016,E,0.00,31.12,130121,,,A,V*35
$GNRMC,080857.000,A,3038.42011,N,10406.27035,E,0.00,31.12,130121,,,A,V*37
$GNRMC,080858.000,A,3038.42001,N,10406.27047,E,0.00,31.12,130121,,,A,V*3C
$GNRMC,080859.000,A,3038.41993,N,10406.27058,E,0.00,31.12,130121,,,A,V*32
$GNRMC,080900.000,A,3038.41985,N,10406.27070,E,0.00,31.12,130121,,,A,V*32
$GNRMC,080901.000,A,3038.41975,N,10406.27077,E,0.00,31.12,130121,,,A,V*3B
$GNRMC,080902.000,A,3038.41967,N,10406.27087,E,0.00,31.12,130121,,,A,V*34
$GNRMC,080903.000,A,3038.41962,N,10406.27092,E,0.00,31.12,130121,,,A,V*34
$GNRMC,080904.000,A,3038.41956,N,10406.27097,E,0.00,31.12,130121,,,A,V*31
$GNRMC,080906.000,A,3038.41940,N,10406.27116,E,0.00,31.12,130121,,,A,V*3C
$GNRMC,080907.000,A,3038.41932,N,10406.27127,E,0.00,31.12,130121,,,A,V*3A
$GNRMC,080908.000,A,3038.41924,N,10406.27141,E,0.00,31.12,130121,,,A,V*32
$GNRMC,080909.000,A,3038.41916,N,10406.27151,E,0.00,31.12,130121,,,A,V*33
$GNRMC,080910.000,A,3038.41907,N,10406.27162,E,0.00,31.12,130121,,,A,V*3B
$GNRMC,080911.000,A,3038.41900,N,10406.27176,E,0.00,31.12,130121,,,A,V*38
$GNRMC,080912.000,A,3038.41892,N,10406.27187,E,0.00,31.12,130121,,,A,V*3F
$GNRMC,080913.000,A,3038.41884,N,10406.27196,E,0.00,31.12,130121,,,A,V*39
$GNRMC,080914.000,A,3038.41876,N,10406.27195,E,0.00,31.12,130121,,,A,V*30
$GNRMC,080915.000,A,3038.41865,N,10406.27204,E,0.00,31.12,130121,,,A,V*38
$GNRMC,080917.000,A,3038.41852,N,10406.27208,E,0.00,31.12,130121,,,A,V*32
$GNRMC,080918.000,A,3038.41844,N,10406.27214,E,0.00,31.12,130121,,,A,V*37
$GNRMC,080919.000,A,3038.41842,N,10406.27214,E,0.00,31.12,130121,,,A,V*30
$GNRMC,080920.000,A,3038.41854,N,10406.27246,E,1.33,31.12,130121,,,A,V*3B
$GNRMC,080921.000,A,3038.41902,N,10406.27298,E,3.33,39.12,130121,,,A,V*31
$GNRMC,080922.000,A,3038.42006,N,10406.27388,E,6.11,33.77,130121,,,A,V*30
$GNRMC,080923.000,A,3038.42154,N,10406.27492,E,6.60,32.10,130121,,,A,V*3D
$GNRMC,080925.000,A,3038.42472,N,10406.27683,E,5.60,23.38,130121,,,A,V*31
$GNRMC,080926.000,A,3038.42628,N,10406.27752,E,5.89,20.76,130121,,,A,V*3C
$GNRMC,080927.000,A,3038.42775,N,10406.27802,E,4.94,22.15,130121,,,A,V*34
